[
	{
		"stationName": "龙江县",
		"Lon": 123.06,
		"Lat":47.23
	},
	{
		"stationName": "依安县",
		"Lon": 125.28,
		"Lat":47.71
	},
	{
		"stationName": "泰来县",
		"Lon": 123.43,
		"Lat": 46.45
	},
	{
		"stationName": "甘南县",
		"Lon": 123.86,
		"Lat": 48.00
	},
	{
		"stationName": "富裕县",
		"Lon": 124.53,
		"Lat": 47.59
	},
	{
		"stationName": "克山县",
		"Lon": 125.70,
		"Lat": 48.14
	},
	{
		"stationName": "克东县",
		"Lon": 126.34,
		"Lat":47.98
	},
	{
		"stationName": "拜泉县",
		"Lon": 125.96,
		"Lat": 47.54
	},
	{
		"stationName": "讷河市",
		"Lon": 125.00,
		"Lat": 48.50
	},
	{
		"stationName": "龙沙区",
		"Lon": 123.9,
		"Lat": 47.28
	},
	{
		"stationName": "建华区",
		"Lon": 123.99,
		"Lat": 47.39
	},
	{
		"stationName": "铁锋区",
		"Lon": 124.24,
		"Lat": 47.28
	},
	{
		"stationName": "昂昂溪区",
		"Lon": 124.02,
		"Lat": 47.11
	},
	{
		"stationName": "富拉尔基区",
		"Lon": 123.56,
		"Lat": 47.18
	},
	{
		"stationName": "碾子山区",
		"Lon": 122.89,
		"Lat": 47.61
	},
	{
		"stationName": "梅里斯达斡尔族区",
		"Lon": 123.60,
		"Lat": 47.68
	}
]